City_ID,City,Lat,Lng,Max Temp,Humidity,Cloudiness,Wind Speed,Country,Date
0,albany,42.6001,-73.9662,74.39,92,97,1.01,US,1663084152
1,shelburne,44.0787,-80.2041,66.24,64,87,6.44,CA,1663084423
2,faanui,-16.4833,-151.75,77.54,76,100,20.62,PF,1663084426
3,bredasdorp,-34.5322,20.0403,60.19,69,0,9.71,ZA,1663084428
4,luce,48.4369,1.4636,78.55,59,99,6.24,FR,1663084431
5,lahad datu,5.0268,118.327,77.77,86,15,1.45,MY,1663084433
6,green river,41.5286,-109.4662,57.6,15,99,7.31,US,1663084435
7,lebu,-37.6167,-73.65,55.89,64,13,8.12,CL,1663084438
8,atuona,-9.8,-139.0333,75.45,72,1,13.2,PF,1663084440
9,anadyr,64.75,177.4833,39.7,100,75,6.71,RU,1663084442
10,verkhnetulomskiy,68.6073,31.7962,50.13,86,94,6.64,RU,1663084445
11,hobart,-42.8794,147.3294,40.05,91,31,5.75,AU,1663084447
12,new norfolk,-42.7826,147.0587,39.7,73,47,2.44,AU,1663084451
13,port elizabeth,-33.918,25.5701,64.09,76,0,10.36,ZA,1663084454
14,ushuaia,-54.8,-68.3,46.06,57,75,17.27,AR,1663084456
15,mahebourg,-20.4081,57.7,70.25,83,40,6.91,MU,1663084458
16,ust-tsilma,65.441,52.1498,43.45,97,86,5.23,RU,1663084461
17,margate,51.3813,1.3862,65.3,82,100,4.0,GB,1663084463
18,oswego,43.4501,-76.1497,64.58,96,82,3.0,US,1663084416
19,sainte-marie,-20.8968,55.5496,71.76,73,100,10.36,RE,1663084468
20,arraial do cabo,-22.9661,-42.0278,82.36,78,40,11.5,BR,1663084470
21,ponta do sol,32.6667,-17.1,81.01,75,78,11.65,PT,1663084472
22,palmer,42.1584,-72.3287,77.25,79,75,8.05,US,1663084475
23,naze,28.3667,129.4833,81.52,85,41,16.96,JP,1663084477
24,pevek,69.7008,170.3133,34.2,92,100,5.28,RU,1663084482
25,iqaluit,63.7506,-68.5145,42.53,86,100,10.36,CA,1663084484
26,yellowknife,62.456,-114.3525,46.92,87,20,2.3,CA,1663084486
27,ribeira grande,38.5167,-28.7,79.2,89,75,11.5,PT,1663084489
28,bluff,-46.6,168.3333,42.91,70,89,9.82,NZ,1663084491
29,rikitea,-23.1203,-134.9692,71.2,75,32,0.76,PF,1663084493
30,punta arenas,-53.15,-70.9167,44.62,70,75,17.27,CL,1663084385
31,nosy varika,-20.5833,48.5333,69.84,81,6,8.16,MG,1663084498
32,tura,25.5198,90.2201,71.65,98,99,4.81,IN,1663084500
33,den helder,52.9599,4.7593,68.99,70,100,8.99,NL,1663084237
34,jamestown,42.097,-79.2353,66.18,75,20,7.0,US,1663084505
35,hamilton,39.1834,-84.5333,69.26,69,75,6.91,US,1663084393
36,cherskiy,68.75,161.3,35.94,99,100,4.16,RU,1663084509
37,lavrentiya,65.5833,-171.0,45.48,91,100,6.11,RU,1663084511
38,bulaevo,54.9056,70.4439,49.14,58,97,2.28,KZ,1663084516
39,vaini,-21.2,-175.2,71.76,94,20,4.61,TO,1663084518
40,kaitangata,-46.2817,169.8464,36.09,93,98,9.31,NZ,1663084520
41,chute-aux-outardes,49.1168,-68.399,58.98,100,100,9.22,CA,1663084523
42,hasaki,35.7333,140.8333,75.6,91,100,3.69,JP,1663084525
43,dois corregos,-22.3661,-48.3803,81.14,41,93,5.68,BR,1663084529
44,busselton,-33.65,115.3333,55.42,56,88,17.63,AU,1663084532
45,san patricio,28.017,-97.5169,87.75,57,18,4.65,US,1663084534
46,puerto ayacucho,5.6639,-67.6236,85.62,66,97,2.42,VE,1663084536
47,avarua,-21.2078,-159.775,71.65,83,29,6.91,CK,1663084539
48,shimoda,34.6667,138.95,77.92,89,100,6.24,JP,1663084541
49,nikolskoye,59.7035,30.7861,58.89,74,55,5.01,RU,1663084544
50,tuktoyaktuk,69.4541,-133.0374,33.8,93,100,17.27,CA,1663084546
51,mataura,-46.1927,168.8643,31.91,99,85,3.15,NZ,1663084548
52,gizo,-8.103,156.8419,81.21,77,88,7.47,SB,1663084550
53,santa isabel,-23.3156,-46.2214,72.36,53,91,1.81,BR,1663084553
54,sao jose de ribamar,-2.5619,-44.0542,89.98,68,44,15.05,BR,1663084555
55,kavieng,-2.5744,150.7967,82.45,69,73,17.98,PG,1663084558
56,paragominas,-2.9667,-47.4833,97.3,32,40,4.88,BR,1663084357
57,new richmond,45.123,-92.5366,70.72,28,2,6.53,US,1663084563
58,kualakapuas,-3.0091,114.3876,73.85,98,93,0.81,ID,1663084565
59,east london,-33.0153,27.9116,65.34,68,0,9.22,ZA,1663084568
60,kapaa,22.0752,-159.319,74.1,91,10,9.91,US,1663084570
61,flinders,-34.5833,150.8552,46.38,82,36,1.99,AU,1663084572
62,kautokeino,69.0125,23.0412,47.23,89,100,2.01,NO,1663084575
63,lasa,46.6166,10.7002,72.36,50,39,1.12,IT,1663084577
64,great falls,47.5002,-111.3008,69.67,28,100,4.12,US,1663084581
65,provideniya,64.3833,-173.3,46.87,93,100,4.41,RU,1663084584
66,longyearbyen,78.2186,15.6401,37.24,75,75,8.05,SJ,1663084586
67,portland,45.5234,-122.6762,64.81,80,100,1.01,US,1663084584
68,waipawa,-41.4122,175.5153,43.16,92,32,17.36,NZ,1663084590
69,bambous virieux,-20.3428,57.7575,70.21,83,40,6.91,MU,1663084593
70,georgetown,5.4112,100.3354,81.9,86,20,3.44,MY,1663084395
71,severo-kurilsk,50.6789,156.125,54.34,85,96,2.82,RU,1663084597
72,castro,-24.7911,-50.0119,71.78,70,88,9.82,BR,1663084600
73,geraldton,-28.7667,114.6,59.41,72,75,9.22,AU,1663084602
74,cidreira,-30.1811,-50.2056,67.42,62,28,13.82,BR,1663084604
75,hermanus,-34.4187,19.2345,65.8,65,0,15.05,ZA,1663084611
76,camacha,33.0833,-16.3333,74.62,73,40,14.97,PT,1663084613
77,springbok,-29.6643,17.8865,73.54,7,0,10.13,ZA,1663084616
78,beihai,21.4833,109.1,84.76,75,94,7.63,CN,1663084618
79,butaritari,3.0707,172.7902,80.24,78,97,5.03,KI,1663084620
80,umba,66.6871,34.3429,50.59,88,98,6.6,RU,1663084623
81,husavik,66.0449,-17.3389,46.4,90,97,11.52,IS,1663084625
82,puerto ayora,-0.7393,-90.3518,69.76,97,100,3.0,EC,1663084627
83,hilo,19.7297,-155.09,77.29,95,53,3.0,US,1663084630
84,khatanga,71.9667,102.5,31.26,74,87,7.45,RU,1663084632
85,vikhorevka,56.1201,101.1636,36.99,81,61,3.29,RU,1663084636
86,kruisfontein,-34.0033,24.7314,61.88,75,1,4.27,ZA,1663084639
87,whitehorse,60.7161,-135.0538,43.81,78,75,12.66,CA,1663084641
88,mpanda,-6.3655,31.0409,80.98,40,78,3.04,TZ,1663084644
89,mehamn,71.0357,27.8492,44.55,76,40,8.05,NO,1663084646
90,kidal,18.4411,1.4078,104.34,12,15,3.15,ML,1663084648
91,vryheid,-27.7695,30.7917,53.1,88,98,5.75,ZA,1663084652
92,saskylakh,71.9167,114.0833,35.22,86,100,2.77,RU,1663084657
93,kieta,-6.2167,155.6333,78.39,83,82,4.94,PG,1663084659
94,qaanaaq,77.484,-69.3632,37.26,76,100,3.89,GL,1663084661
95,tasiilaq,65.6145,-37.6368,38.01,85,62,2.04,GL,1663084664
96,kulhudhuffushi,6.6221,73.07,81.16,80,51,5.7,MV,1663084666
97,manokwari,-0.8667,134.0833,79.25,77,87,11.52,ID,1663084671
98,amurzet,47.6967,131.0981,46.06,96,0,4.76,RU,1663084674
99,vanderhoof,54.0166,-124.0198,54.0,56,0,4.41,CA,1663084678
100,deputatskiy,69.3,139.9,32.16,71,100,3.8,RU,1663084681
101,los llanos de aridane,28.6585,-17.9182,74.95,80,40,8.01,ES,1663084683
102,atar,20.5169,-13.0499,104.0,21,30,8.93,MR,1663084685
103,zhezkazgan,47.8043,67.7144,58.71,31,89,7.83,KZ,1663084688
104,kalengwa,-13.4659,25.0027,83.82,13,0,5.23,ZM,1663084690
105,victoria,22.2855,114.1577,90.18,62,4,8.99,HK,1663084694
106,omboue,-1.5746,9.2618,77.95,69,74,8.1,GA,1663084697
107,pontarlier,46.8333,6.25,75.54,60,99,2.98,FR,1663084701
108,conceicao do araguaia,-8.2578,-49.2647,104.76,16,15,7.14,BR,1663084704
109,airai,-8.9266,125.4092,57.67,79,20,3.27,TL,1663084706
110,tiksi,71.6872,128.8694,38.26,85,83,6.22,RU,1663084708
111,berlevag,70.8578,29.0864,44.6,74,100,12.01,NO,1663084711
112,kodiak,57.79,-152.4072,48.16,84,98,2.93,US,1663084713
113,skibbereen,51.55,-9.2667,64.92,68,100,12.88,IE,1663084588
114,mosquera,4.7059,-74.2302,59.09,67,40,2.3,CO,1663084646
115,maine-soroa,13.2114,12.0241,94.19,40,87,9.62,NE,1663084728
116,lilongwe,-13.9669,33.7873,75.4,35,0,17.27,MW,1663084732
117,atambua,-9.1061,124.8925,71.56,86,12,5.14,ID,1663084734
118,bolshaya rechka,51.9503,104.7355,52.07,73,100,6.96,RU,1663084737
119,namibe,-15.1961,12.1522,72.23,78,75,13.8,AO,1663084739
120,klaksvik,62.2266,-6.589,50.92,85,100,9.19,FO,1663084742
121,qaqortoq,60.7167,-46.0333,46.36,80,12,7.85,GL,1663084744
122,aksarka,66.5606,67.7975,41.9,91,94,6.26,RU,1663084747
123,upernavik,72.7868,-56.1549,41.31,93,100,4.0,GL,1663084749
124,chicama,-7.8447,-79.1469,61.34,59,39,9.48,PE,1663084751
125,carnarvon,-24.8667,113.6333,65.48,59,0,15.12,AU,1663084753
126,pochutla,15.7432,-96.4661,83.82,81,100,0.63,MX,1663084760
127,wanaka,-44.7,169.15,27.88,80,14,4.59,NZ,1663084762
128,tottori,35.5,134.2333,73.2,92,100,2.51,JP,1663084760
129,verkhnevilyuysk,63.4453,120.3167,44.22,96,100,11.16,RU,1663084767
130,saint-pierre,-21.3393,55.4781,71.28,68,0,3.44,RE,1663084769
131,ibotirama,-12.1853,-43.2206,100.04,15,3,1.12,BR,1663084771
132,cape town,-33.9258,18.4232,68.11,75,0,15.01,ZA,1663084656
133,korla,41.7597,86.1469,74.97,28,46,7.65,CN,1663084776
134,cabo san lucas,22.8909,-109.9124,87.06,72,18,6.58,MX,1663084778
135,luderitz,-26.6481,15.1594,73.85,35,33,8.99,NA,1663084780
136,ribas do rio pardo,-20.4431,-53.7592,91.6,38,22,0.29,BR,1663084783
137,dungarpur,23.8333,73.7167,83.41,72,100,1.81,IN,1663084787
138,kismayo,-0.3582,42.5454,75.97,84,85,14.29,SO,1663084789
139,coquimbo,-29.9533,-71.3436,58.73,67,20,9.22,CL,1663084792
140,chuy,-33.6971,-53.4616,62.2,68,43,13.51,UY,1663084794
141,port alfred,-33.5906,26.891,63.18,79,1,3.0,ZA,1663084796
142,mariani,26.6667,94.3333,75.88,92,85,4.65,IN,1663084799
143,bandarbeyla,9.4942,50.8122,77.9,86,100,31.43,SO,1663084801
144,lorengau,-2.0226,147.2712,80.78,70,26,9.44,PG,1663084804
145,presidencia roque saenz pena,-26.7852,-60.4388,77.02,20,0,7.56,AR,1663084809
146,hithadhoo,-0.6,73.0833,81.9,67,3,1.34,MV,1663084812
147,dali,25.7,100.1833,64.62,83,92,2.15,CN,1663084815
148,khash,28.2211,61.2158,80.24,15,31,8.75,IR,1663084817
149,bilma,18.6853,12.9164,104.72,11,56,5.37,NE,1663084820
150,gamboma,-1.8764,15.8644,85.68,53,87,5.17,CG,1663084823
151,ballina,-28.8667,153.5667,57.02,91,47,7.29,AU,1663084825
152,joaquim nabuco,-8.6244,-35.5333,81.57,60,32,9.71,BR,1663084829
153,hami,42.8,93.45,72.3,15,47,18.19,CN,1663084832
154,grand gaube,-20.0064,57.6608,70.38,75,48,4.0,MU,1663084835
155,tuatapere,-46.1333,167.6833,40.37,86,100,3.56,NZ,1663084837
156,lagoa,39.05,-27.9833,73.63,89,100,12.03,PT,1663084840
157,lethem,3.3803,-59.7968,87.93,60,10,4.85,GY,1663084842
158,okhotsk,59.3833,143.3,46.31,64,43,4.09,RU,1663084844
159,magadan,59.5667,150.8,41.94,63,0,7.56,RU,1663084847
160,malayal,7.208,121.942,79.83,82,95,3.13,PH,1663084849
161,sokolo,14.7328,-6.1219,96.62,33,100,3.76,ML,1663084852
162,kaeo,-35.1,173.7833,53.33,94,100,3.89,NZ,1663084855
163,udachnyy,66.4167,112.4,33.01,81,80,5.28,RU,1663084857
164,seoul,37.5683,126.9778,74.59,59,100,6.08,KR,1663084859
165,bara,10.3744,10.7288,77.31,84,100,13.35,NG,1663084862
166,blytheville,35.9273,-89.919,79.05,44,0,8.05,US,1663084865
167,marawi,7.9986,124.2928,69.1,91,84,4.83,PH,1663084867
168,eden,36.4885,-79.7667,77.0,46,0,8.05,US,1663084831
169,jieshi,22.8134,115.8257,82.45,60,3,8.84,CN,1663084872
170,tomatlan,19.9333,-105.25,77.23,86,98,2.48,MX,1663084874
171,bakonyszentlaszlo,47.389,17.8032,72.21,48,98,4.63,HU,1663084877
172,strezhevoy,60.7333,77.5889,44.06,87,96,8.28,RU,1663084879
173,chapais,49.7834,-74.8492,62.38,91,100,4.0,CA,1663084882
174,mezhevoy,55.1711,58.7814,50.04,61,100,2.42,RU,1663084884
175,shitanjing,39.2342,106.3439,65.34,46,89,21.97,CN,1663084887
176,kearney,40.6995,-99.0815,70.36,35,0,6.06,US,1663084752
177,bengkulu,-3.8004,102.2655,74.05,90,100,6.15,ID,1663084891
178,vanavara,60.34,102.2797,39.4,87,85,5.44,RU,1663084894
179,codrington,-38.2667,141.9667,39.72,82,0,11.65,AU,1663084896
180,bontang,0.1333,117.5,77.56,87,91,6.98,ID,1663084898
181,oranjemund,-28.55,16.4333,70.52,34,0,15.68,NA,1663084901
182,siguiri,11.6667,-9.5,83.12,73,89,5.88,GN,1663084903
183,sangmelima,2.9333,11.9833,72.57,95,93,3.18,CM,1663084906
184,raychikhinsk,49.7838,129.4121,45.7,82,1,7.36,RU,1663084908
185,vila,42.0304,-8.1588,61.68,93,100,7.76,PT,1663084910
186,dingle,10.9995,122.6711,76.08,89,79,4.0,PH,1663084913
187,vestmannaeyjar,63.4427,-20.2734,52.79,76,20,13.8,IS,1663084915
188,the valley,18.217,-63.0578,88.11,74,15,11.95,AI,1663084917
189,newark,40.7357,-74.1724,81.25,83,100,4.61,US,1663084682
190,saldanha,-33.0117,17.9442,59.95,78,2,13.44,ZA,1663084922
191,mar del plata,-38.0023,-57.5575,64.42,82,0,11.01,AR,1663084679
192,yerofey pavlovich,53.9667,121.9667,48.07,84,97,5.17,RU,1663084926
193,saint-philippe,-21.3585,55.7679,71.19,71,56,5.06,RE,1663084929
194,waidhofen,48.5833,11.3333,79.72,74,75,0.0,DE,1663084931
195,ancud,-41.8697,-73.8203,50.23,80,94,16.35,CL,1663084933
196,vrangel,42.7297,133.0839,58.77,70,98,7.38,RU,1663084936
197,killybegs,54.6333,-8.45,58.71,70,1,10.16,IE,1663084938
198,saint anthony,45.0205,-93.218,73.81,57,0,5.75,US,1663084831
199,luwingu,-10.2621,29.9271,79.36,23,51,6.2,ZM,1663084943
200,naryan-mar,67.6713,53.087,46.42,90,100,11.23,RU,1663084945
201,saint george,37.1041,-113.5841,64.99,94,100,6.91,US,1663084824
202,lompoc,34.6391,-120.4579,71.78,90,100,4.61,US,1663084950
203,mount isa,-20.7333,139.5,58.77,51,0,0.0,AU,1663084952
204,la ronge,55.1001,-105.2842,52.59,49,79,3.2,CA,1663084954
205,solenzo,12.1833,-4.0833,78.71,75,99,1.57,BF,1663084957
206,pangnirtung,66.1451,-65.7125,48.2,81,100,12.66,CA,1663084959
207,tecoanapa,16.5167,-98.75,81.25,73,100,1.95,MX,1663084961
208,soyo,-6.1349,12.3689,75.22,77,79,9.4,AO,1663084964
209,konza,-1.7426,37.1294,69.03,54,100,10.45,KE,1663084966
210,nuuk,64.1835,-51.7216,48.81,81,75,2.3,GL,1663084968
211,ryotsu,38.0833,138.4333,73.44,84,100,8.88,JP,1663084971
212,kavaratti,10.5669,72.642,80.73,84,29,11.05,IN,1663084973
213,burnie,-41.0667,145.9167,37.94,70,4,7.49,AU,1663084975
214,tigil,57.8,158.6667,42.03,94,100,3.36,RU,1663084978
215,sangueya,10.7,-14.3667,82.22,79,100,7.92,GN,1663084980
216,keelung,25.1283,121.7419,80.06,83,100,17.76,TW,1663084982
217,gallup,35.5281,-108.7426,66.96,61,75,6.91,US,1663084985
218,hvide sande,56.0045,8.1294,60.1,75,73,29.28,DK,1663084987
219,alofi,-19.0595,-169.9187,76.51,78,5,18.88,NU,1663084990
220,kondopoga,62.2057,34.2614,56.88,78,100,5.03,RU,1663084992
221,norman wells,65.282,-126.8329,50.67,54,100,3.31,CA,1663084995
222,manggar,-2.8833,108.2667,80.65,80,100,7.23,ID,1663084997
223,avera,33.194,-82.5271,76.51,35,25,6.06,US,1663084999
224,sakaiminato,35.55,133.2333,76.08,87,100,14.32,JP,1663085002
225,kloulklubed,7.0419,134.2556,84.07,71,90,10.58,PW,1663085004
226,constantine,36.365,6.6147,97.72,17,71,6.85,DZ,1663084827
227,malanje,-9.5402,16.341,85.28,32,86,3.15,AO,1663085010
228,chama,47.1821,8.4636,80.08,61,20,2.3,CH,1663085013
229,buraydah,26.326,43.975,99.1,8,1,7.11,SA,1663085015
230,fortuna,40.5982,-124.1573,56.93,93,28,2.19,US,1663085017
231,dehloran,32.6941,47.2679,99.91,9,0,5.5,IR,1663085020
232,awbari,26.5921,12.7805,99.27,12,0,9.71,LY,1663084831
233,polson,47.6936,-114.1632,64.72,69,100,1.66,US,1663085024
234,jining,35.405,116.5814,67.32,78,0,5.93,CN,1663085027
235,paciran,-6.8767,112.3761,80.24,77,19,5.68,ID,1663085029
236,puerto carreno,6.189,-67.4859,86.65,64,76,1.25,CO,1663085032
237,talnakh,69.4865,88.3972,34.66,99,100,5.35,RU,1663085035
238,shieli,44.1667,66.75,67.1,25,2,16.69,KZ,1663085037
239,bonthe,7.5264,-12.505,80.53,71,99,11.12,SL,1663085040
240,sitka,57.0531,-135.33,53.62,82,47,3.38,US,1663085042
241,sao joao da barra,-21.6403,-41.0511,75.65,70,19,15.32,BR,1663085046
242,pyinmana,19.7333,96.2167,74.32,95,95,3.87,MM,1663085049
243,imbituba,-28.24,-48.6703,70.86,80,22,10.07,BR,1663085051
244,kathu,7.9178,98.3332,85.75,69,99,11.9,TH,1663085053
245,sawakin,19.1059,37.3321,92.5,47,53,9.93,SD,1663085056
246,mahanoro,-19.9,48.8,69.1,83,32,7.36,MG,1663085058
247,dakar,14.6937,-17.4441,86.88,75,80,13.42,SN,1663085051
248,moranbah,-22.0016,148.0466,60.98,80,0,8.37,AU,1663085063
249,oussouye,12.485,-16.5469,84.96,69,100,12.46,SN,1663085065
250,san quintin,30.4833,-115.95,72.09,86,74,4.0,MX,1663085067
251,colares,38.7992,-9.4469,73.26,70,75,28.99,PT,1663085070
252,ilulissat,69.2167,-51.1,44.62,87,75,5.75,GL,1663085072
253,virginia beach,36.8529,-75.978,84.02,79,75,10.36,US,1663085076
254,touros,-5.1989,-35.4608,82.44,68,67,16.35,BR,1663085079
255,bethel,41.3712,-73.414,77.9,83,63,1.01,US,1663085081
256,fare,-16.7,-151.0167,77.29,76,100,19.26,PF,1663085085
257,surt,31.2089,16.5887,82.0,61,0,11.1,LY,1663085088
258,barrow,71.2906,-156.7887,35.62,93,100,20.71,US,1663085090
259,basingstoke,51.2625,-1.0871,64.47,92,100,5.75,GB,1663084927
260,mulchen,-37.7167,-72.2333,62.46,47,43,2.77,CL,1663085094
261,altamont,42.2068,-121.7372,59.77,79,0,0.0,US,1663085097
262,chokurdakh,70.6333,147.9167,32.59,86,29,6.15,RU,1663085099
263,pisco,-13.7,-76.2167,68.05,60,0,16.11,PE,1663085102
264,olafsvik,64.8945,-23.7142,49.08,77,20,8.08,IS,1663085104
265,wake forest,35.9799,-78.5097,81.05,59,0,6.91,US,1663085107
266,antofagasta,-23.65,-70.4,60.08,61,4,12.59,CL,1663085109
267,sergeyevka,53.88,67.4158,54.23,47,93,1.07,KZ,1663085111
268,ciudad bolivar,8.1222,-63.5497,89.24,51,7,6.13,VE,1663085114
269,smirnykh,49.75,142.8333,39.54,83,69,9.28,RU,1663085116
270,general roca,-39.0333,-67.5833,66.61,36,21,6.49,AR,1663085119
271,la baule-escoublac,47.2922,-2.364,82.06,54,0,9.22,FR,1663084874
272,diego de almagro,-26.3667,-70.05,63.25,20,0,8.99,CL,1663085123
273,moscow,55.7522,37.6156,55.92,61,100,10.04,RU,1663084843
274,nhulunbuy,-12.2333,136.7667,75.81,88,0,0.0,AU,1663084890
275,salinas,36.6777,-121.6555,66.29,71,75,8.05,US,1663085132
276,nacala,-14.5428,40.6728,74.68,74,2,9.86,MZ,1663085134
277,pinheiro machado,-31.5783,-53.3811,58.05,77,87,9.1,BR,1663085137
278,general pico,-35.6566,-63.7568,71.78,22,89,10.0,AR,1663085141
279,khambi-irze,43.235,45.453,75.06,59,100,4.5,RU,1663085143
280,sri aman,1.2376,111.4621,73.56,99,100,2.86,MY,1663085146
281,iranshahr,27.2025,60.6848,97.12,12,9,9.4,IR,1663085148
282,ruteng,-8.6136,120.4721,61.77,95,50,3.51,ID,1663085151
283,huarmey,-10.0681,-78.1522,66.18,70,60,12.37,PE,1663085153
284,mglin,53.0591,32.8475,46.58,97,100,8.43,RU,1663085155
285,tam ky,15.5667,108.4833,78.44,85,85,2.35,VN,1663085157
286,lulea,65.5842,22.1547,55.47,88,40,12.66,SE,1663085160
287,artemisa,22.814,-82.7561,87.98,63,30,6.46,CU,1663085162
288,nemuro,43.3236,145.575,63.59,87,7,21.09,JP,1663085165
289,tutoia,-2.7619,-42.2744,85.73,59,16,15.57,BR,1663085167
290,aklavik,68.2191,-135.0107,38.73,87,97,7.67,CA,1663085170
291,bata,1.8639,9.7658,79.81,74,99,8.93,GQ,1663085172
292,la palma,33.8464,-118.0467,80.19,77,0,3.44,US,1663085175
293,xining,36.6167,101.7667,57.54,73,69,1.07,CN,1663085177
294,peachland,49.7665,-119.7357,66.67,91,42,0.72,CA,1663085180
295,nizwa,22.9333,57.5333,97.61,24,88,9.33,OM,1663085182
296,barentu,15.1139,37.5928,77.9,62,34,7.23,ER,1663085184
297,acajutla,13.5928,-89.8275,82.56,74,100,11.12,SV,1663085187
298,mount gambier,-37.8333,140.7667,45.3,67,5,10.78,AU,1663085189
299,shimanovsk,52.0,127.7,50.52,66,57,14.27,RU,1663085191
300,crossville,35.949,-85.0269,72.45,63,0,5.01,US,1663085194
301,sorland,67.667,12.6934,51.66,76,100,25.7,NO,1663085196
302,tulle,45.3333,1.8333,77.99,66,95,3.87,FR,1663085198
303,mujiayingzi,42.1167,118.7833,56.88,82,0,0.47,CN,1663085201
304,nome,64.5011,-165.4064,50.16,87,100,6.91,US,1663085203
305,labatlan,47.7473,18.4962,73.65,48,79,2.55,HU,1663085207
306,suntar,62.1444,117.6319,39.42,96,100,17.02,RU,1663085210
307,sobolevo,54.4299,31.8996,47.64,83,100,8.57,RU,1663085212
308,richards bay,-28.783,32.0377,64.27,82,98,5.48,ZA,1663085214
309,olinda,-8.0089,-34.8553,80.33,69,40,13.8,BR,1663085096
310,muros,42.7762,-9.0603,71.83,81,98,20.22,ES,1663085219
311,vryburg,-26.9566,24.7284,74.82,25,6,9.53,ZA,1663085221
312,isangel,-19.55,169.2667,73.24,84,64,7.02,VU,1663085223
313,namatanai,-3.6667,152.4333,77.92,76,63,8.14,PG,1663085226
314,shache,38.4167,77.2406,78.01,22,98,7.67,CN,1663085228
315,spas,48.8899,24.0629,55.98,72,94,2.21,UA,1663085231
316,vila franca do campo,37.7167,-25.4333,73.81,71,58,8.1,PT,1663085233
317,utica,43.1009,-75.2327,71.35,96,100,6.22,US,1663085236
318,ulverstone,-41.15,146.1667,38.21,80,8,6.62,AU,1663085238
319,zhigansk,66.7697,123.3711,37.89,97,100,14.97,RU,1663085240
320,gravdal,68.1214,13.5031,49.89,87,20,16.11,NO,1663085243
321,port hedland,-20.3167,118.5667,71.65,83,2,11.5,AU,1663085245
322,chiang rai,19.9167,99.9167,73.58,99,76,1.83,TH,1663085248
323,dustlik,40.5247,68.0358,67.24,26,0,8.03,UZ,1663085250
324,lixourion,38.2019,20.4314,78.8,44,20,14.97,GR,1663085252
325,ballarat,-37.5662,143.8496,33.1,90,0,4.07,AU,1663085254
326,ahipara,-35.1667,173.1667,53.76,91,100,5.91,NZ,1663085257
327,taoudenni,22.6783,-3.9836,112.1,7,2,5.93,ML,1663085259
328,dikson,73.5069,80.5464,38.17,75,100,12.95,RU,1663085261
329,esperance,-33.8667,121.9,53.55,68,83,30.06,AU,1663085264
330,saint stephen,50.3333,-4.9,67.03,94,40,8.05,GB,1663085268
331,palana,59.1167,159.9667,40.32,89,100,7.61,RU,1663085270
332,doha,25.2867,51.5333,93.18,59,0,6.91,QA,1663085143
333,mnogovershinnyy,53.9353,139.9242,39.04,62,81,5.7,RU,1663085275
334,leningradskiy,69.3833,178.4167,36.0,95,100,3.51,RU,1663085277
335,palu,-0.8917,119.8707,75.43,96,88,2.04,ID,1663085279
336,ulaangom,49.9811,92.0667,48.13,54,19,3.87,MN,1663085282
337,yulara,-25.2406,130.9889,72.39,34,7,10.89,AU,1663085284
338,bereznik,62.8551,42.7072,50.88,84,99,4.47,RU,1663085287
339,shubarkuduk,49.1447,56.4872,63.46,32,37,9.01,KZ,1663085289
340,pak phanang,8.3511,100.202,79.68,82,91,6.31,TH,1663085292
341,narsaq,60.9167,-46.05,50.22,59,6,5.95,GL,1663085294
342,port lincoln,-34.7333,135.8667,64.02,49,85,20.09,AU,1663085296
343,manasa,24.4837,75.2687,76.66,89,100,7.96,IN,1663085299
344,ratnagiri,16.9833,73.3,78.39,89,100,10.22,IN,1663085301
345,taretan,19.3333,-101.9167,73.51,83,40,0.0,MX,1663085304
346,tortoli,39.9256,9.6572,83.28,61,5,10.45,IT,1663085306
347,akyab,20.15,92.9,80.11,81,99,2.77,MM,1663085309
348,zhuhai,22.2769,113.5678,87.58,79,0,5.75,CN,1663085311
349,nanortalik,60.1432,-45.2371,45.82,82,11,7.63,GL,1663085313
350,kapit,2.0167,112.9333,73.78,100,100,0.65,MY,1663085315
351,torbay,47.6666,-52.7314,60.49,96,100,21.85,CA,1663085318
352,mukhen,48.1,136.1,39.42,97,38,1.25,RU,1663085320
353,vao,-22.6667,167.4833,70.74,78,100,11.18,NC,1663085323
354,cayenne,4.9333,-52.3333,89.64,62,20,9.22,GF,1663085172
355,ixtapa,20.7,-105.2,82.22,94,100,4.61,MX,1663085330
356,hobyo,5.3505,48.5268,76.91,85,71,26.02,SO,1663085332
357,rupert,42.6191,-113.6772,66.15,59,0,0.0,US,1663085334
358,bathsheba,13.2167,-59.5167,88.41,70,20,14.97,BB,1663085337
359,beloha,-25.1667,45.05,67.19,73,38,12.82,MG,1663085339
360,jasper,37.2001,-94.3502,80.06,50,0,9.22,US,1663085342
361,sorong,-0.8833,131.25,77.47,88,100,4.59,ID,1663085344
362,salalah,17.0151,54.0924,80.69,89,100,5.75,OM,1663085346
363,wageningen,51.9667,5.6667,74.1,62,100,6.91,NL,1663085349
364,toyooka,35.5333,134.8333,75.02,94,100,1.45,JP,1663085194
365,nishihara,26.1842,127.7558,80.65,94,75,6.91,JP,1663085355
366,milos,36.75,24.4333,74.26,64,0,9.69,GR,1663085360
367,senanga,-16.1167,23.2667,89.42,10,1,9.31,ZM,1663085362
368,siva,29.2041,25.5195,91.65,23,0,9.48,EG,1663085364
369,itarema,-2.9248,-39.9167,87.98,53,9,18.79,BR,1663085245
370,marabba,12.35,32.1833,82.67,64,100,10.8,SD,1663085369
371,saint-augustin,51.226,-58.6502,69.49,51,25,3.09,CA,1663085373
372,tarko-sale,64.9225,77.785,45.05,94,100,10.96,RU,1663085378
373,aleksandrov gay,50.147,48.5704,67.91,29,100,14.05,RU,1663085380
374,gidam,18.9833,81.4,73.9,95,92,5.44,IN,1663085387
375,sambava,-14.2667,50.1667,71.02,86,47,10.13,MG,1663085389
376,broken hill,-31.95,141.4333,56.39,60,100,15.41,AU,1663085392
377,harper,4.375,-7.7169,78.04,76,88,8.5,LR,1663085394
378,nilai,2.8169,101.7956,74.86,88,40,4.61,MY,1663085397
379,solnechnyy,50.7214,136.6319,38.5,84,5,4.52,RU,1663085399
380,burns lake,54.2331,-125.7533,51.3,58,0,2.93,CA,1663085406
381,xichang,27.8964,102.2634,66.45,86,84,2.08,CN,1663085409
382,piranhas,-16.4269,-51.8222,102.54,12,29,10.65,BR,1663085414
383,andros town,24.7,-77.7667,85.86,62,24,5.53,BS,1663085416
384,batemans bay,-35.7167,150.1833,52.11,86,50,4.12,AU,1663085418
385,bolu,40.6667,31.5833,56.08,88,33,5.06,TR,1663085421
386,ivaipora,-24.2478,-51.6847,68.86,84,98,6.2,BR,1663085423
387,brigantine,39.4101,-74.3646,82.09,79,75,8.05,US,1663085426
388,baglung,28.2719,83.5898,68.49,94,88,1.9,NP,1663085428
389,belyy yar,53.6039,91.3903,44.85,70,0,6.71,RU,1663085430
390,misratah,32.3754,15.0925,82.9,57,0,11.48,LY,1663085433
391,kudahuvadhoo,2.6708,72.8944,82.22,69,20,4.38,MV,1663085435
392,olavarria,-36.8927,-60.3225,66.02,43,4,4.25,AR,1663085344
393,katsuura,35.1333,140.3,77.4,92,99,4.45,JP,1663085358
394,karaton,-6.3424,106.1045,73.56,94,100,2.98,ID,1663085441
395,bomet,-0.7813,35.3416,58.62,94,100,0.63,KE,1663085444
396,sept-iles,50.2001,-66.3821,64.06,85,95,6.91,CA,1663085446
397,bereda,43.2686,-7.5406,72.41,82,100,7.05,ES,1663085448
398,albion,42.2431,-84.753,69.19,73,0,5.75,US,1663085451
399,bakaly,55.1789,53.8028,50.68,58,42,5.77,RU,1663085453
400,xuanhua,40.6103,115.0447,66.18,76,0,3.09,CN,1663085455
401,upington,-28.4478,21.2561,80.98,9,0,4.61,ZA,1663085458
402,thompson,55.7435,-97.8558,48.16,46,67,5.53,CA,1663085324
403,walvis bay,-22.9575,14.5053,68.25,45,11,9.51,NA,1663085462
404,marsa matruh,31.3525,27.2453,79.66,66,0,9.48,EG,1663085465
405,taltal,-25.4,-70.4833,60.8,62,0,9.4,CL,1663085467
406,amapa,1.0,-52.0,95.16,36,31,4.63,BR,1663085469
407,arkul,57.2808,50.044,51.03,63,62,4.76,RU,1663085472
408,nazarovo,56.0064,90.3914,38.57,67,7,3.51,RU,1663085474
409,marzuq,14.4,46.4667,74.05,61,94,17.56,YE,1663085477
410,jumla,29.2747,82.1838,61.95,95,88,2.01,NP,1663085479
411,tilichiki,60.4667,166.1,40.03,74,100,1.23,RU,1663085481
412,chivay,-15.6383,-71.6011,59.32,19,71,2.37,PE,1663085484
413,hambantota,6.1241,81.1185,78.91,86,80,15.01,LK,1663085486
414,baruun-urt,46.6806,113.2792,63.99,29,98,5.03,MN,1663085488
415,saint-leu,-21.15,55.2833,68.86,67,78,1.81,RE,1663085491
416,santa fe,-31.6333,-60.7,75.02,30,2,4.0,AR,1663085493
417,egvekinot,66.3167,-179.1667,34.65,97,100,8.59,RU,1663085495
418,dzilam gonzalez,21.2833,-88.9333,81.77,74,100,2.48,MX,1663085498
419,date,42.4681,140.8681,63.66,89,6,9.26,JP,1663085500
420,aranos,-24.1333,19.1167,78.66,9,0,8.79,NA,1663085502
421,khandbari,27.3747,87.2039,70.95,85,100,1.12,NP,1663085504
422,brae,60.3964,-1.353,54.32,79,95,12.24,GB,1663085507
423,moengo,5.6167,-54.4,95.88,39,10,2.77,SR,1663085509
424,bojnurd,37.4747,57.329,74.62,21,0,1.45,IR,1663085511
425,melton,-37.6833,144.5833,40.66,89,0,4.36,AU,1663085514
426,praia,14.9215,-23.5087,81.14,94,75,12.66,CV,1663085516
427,ghanzi,-21.5667,21.7833,83.68,11,3,8.75,BW,1663085518
428,wakkanai,45.4094,141.6739,57.11,77,78,32.77,JP,1663085520
429,yeppoon,-23.1333,150.7333,58.78,78,0,7.38,AU,1663085523
430,aguadilla,18.4275,-67.1541,90.64,70,0,12.66,PR,1663085525
431,bolobo,-2.1667,16.2333,84.29,56,61,6.22,CD,1663085231
432,nouadhibou,20.931,-17.0347,76.98,73,98,19.57,MR,1663085529
433,ambilobe,-13.2,49.05,74.73,71,68,1.72,MG,1663085532
434,bougouni,11.417,-7.479,75.65,90,100,2.1,ML,1663085534
435,sarkand,45.41,79.9186,54.36,47,10,3.11,KZ,1663085536
436,broome,42.2506,-75.833,66.85,90,100,9.22,US,1663085539
437,gongzhuling,43.5008,124.8198,51.57,81,0,6.91,CN,1663085541
438,port hardy,50.6996,-127.4199,53.78,87,75,4.61,CA,1663085543
439,moa,20.6569,-74.9403,88.07,62,2,6.22,CU,1663085548
440,luganville,-15.5333,167.1667,76.42,83,17,3.44,VU,1663085550
441,ojinaga,29.5667,-104.4167,82.58,57,0,0.0,MX,1663085552
442,deming,32.2687,-107.7586,71.49,68,0,6.91,US,1663085554
443,dwarka,22.2394,68.9678,79.75,88,100,8.72,IN,1663085557
444,rockland,41.1668,-74.0496,77.68,89,54,6.87,US,1663085560
445,gat,31.61,34.7642,83.8,100,0,8.12,IL,1663085562
446,mackay,-21.15,149.2,61.68,80,2,7.65,AU,1663085564
447,morehead,37.2711,-87.1764,74.98,60,0,5.75,US,1663085567
448,miguel hidalgo,19.4225,-99.2028,66.13,70,75,6.91,MX,1663085569
449,almaznyy,48.0448,40.045,63.64,61,61,11.59,RU,1663085571
450,yaan,7.3833,8.5667,72.82,89,100,3.31,NG,1663085574
451,seymchan,62.8833,152.4333,35.44,91,92,4.7,RU,1663085576
452,leeton,-34.5667,146.4,38.89,78,0,5.91,AU,1663085578
453,van,38.4924,43.3831,72.75,25,20,10.36,TR,1663085581
454,kyren,51.6828,102.1408,49.32,84,100,5.19,RU,1663085537
455,asau,46.4333,26.4,60.28,80,85,0.96,RO,1663085585
456,carballo,43.213,-8.691,73.9,81,100,9.19,ES,1663085590
457,rustenburg,-25.6676,27.2421,72.46,32,5,3.47,ZA,1663085592
458,kumbhraj,24.3667,77.05,75.31,95,85,6.35,IN,1663085594
459,yerbogachen,61.2767,108.0108,36.34,90,69,7.63,RU,1663085597
460,saint-joseph,-21.3667,55.6167,68.38,71,71,4.5,RE,1663085599
461,sabang,5.8933,95.3214,82.35,76,97,17.92,ID,1663085491
462,mandali,33.7499,45.5541,101.1,9,0,6.78,IQ,1663085604
463,ambon,-3.6954,128.1814,81.23,13,40,5.75,ID,1663085606
464,tocopilla,-22.092,-70.1979,63.79,65,5,14.03,CL,1663085608
465,hovd,48.0056,91.6419,52.63,29,91,2.06,MN,1663085610
466,mirnyy,62.5353,113.9611,38.86,88,100,14.07,RU,1663085615
467,kankon,15.0167,74.0167,78.6,88,100,8.79,IN,1663085617
468,constitucion,-35.3333,-72.4167,55.36,67,1,4.05,CL,1663085619
469,kaz,52.9113,87.3105,44.24,93,98,1.81,RU,1663085622
470,batagay,67.6333,134.6333,38.68,79,100,5.5,RU,1663085624
471,japura,-0.3167,102.35,72.86,97,100,4.56,ID,1663085626
472,visby,57.6409,18.296,61.02,94,75,8.05,SE,1663085629
473,port shepstone,-30.7414,30.455,64.38,68,15,4.79,ZA,1663085631
474,xai-xai,-25.0519,33.6442,68.05,68,72,13.38,MZ,1663085581
475,jacareacanga,-6.2222,-57.7528,103.89,23,2,2.26,BR,1663085635
476,souillac,-20.5167,57.5167,68.38,83,20,6.91,MU,1663085638
477,barletta,41.3118,16.2908,79.07,44,0,8.7,IT,1663085640
478,ostrovnoy,68.0531,39.5131,47.46,82,98,10.2,RU,1663085642
479,umm lajj,25.0213,37.2685,89.96,47,6,8.68,SA,1663085645
480,oktyabrskoye,43.0645,44.7417,67.35,64,75,8.95,RU,1663085647
481,melville,40.7934,-73.4151,83.05,77,75,11.5,US,1663085595
482,basar,27.9833,94.6667,71.69,99,61,1.19,IN,1663085652
483,abu kamal,34.4506,40.9171,92.19,20,0,7.07,SY,1663085654
484,umm bab,25.2142,50.8072,93.06,46,2,11.36,QA,1663085657
485,pontianak,-0.0333,109.3333,75.18,94,75,4.61,ID,1663085659
486,camargo,27.6667,-105.1667,77.99,40,4,6.82,MX,1663085661
487,dunedin,-45.8742,170.5036,38.8,76,86,8.01,NZ,1663085664
488,sola,-13.8833,167.55,79.54,75,0,13.87,VU,1663085667
489,vestmanna,62.1564,-7.1664,49.12,100,100,10.36,FO,1663085671
490,darhan,49.4867,105.9228,54.27,53,100,10.6,MN,1663085673
491,guerrero negro,27.9769,-114.0611,74.52,77,0,8.75,MX,1663085675
492,eldorado,-23.7869,-54.2836,72.09,63,89,3.49,BR,1663085678
493,moerai,-22.4333,-151.3333,71.85,73,61,22.41,PF,1663085680
494,filingue,14.3521,3.3168,96.12,37,89,3.62,NE,1663085682
495,haines junction,60.7522,-137.5108,39.15,87,100,3.44,CA,1663085685
496,ponta delgada,37.7333,-25.6667,75.92,78,20,12.66,PT,1663085644
497,isabela,6.7085,121.9711,78.53,83,76,2.84,PH,1663085527
498,maple creek,49.9168,-109.4848,62.65,51,100,6.91,CA,1663085691
499,sioux lookout,50.1001,-91.917,57.27,51,20,6.91,CA,1663085693
500,sistranda,63.7256,8.834,55.36,96,100,17.72,NO,1663085696
501,aswan,24.0934,32.907,98.89,16,3,11.77,EG,1663085698
502,novocheremshansk,54.3571,50.1666,54.57,51,100,7.56,RU,1663085700
503,willmar,45.1219,-95.0433,69.98,56,0,0.0,US,1663085703
504,anloga,5.7947,0.8973,78.82,78,84,13.78,GH,1663085705
505,bira,49.0,132.4667,49.55,94,96,1.43,RU,1663085567
506,panjab,34.388,67.0233,60.71,21,39,5.59,AF,1663085710
507,lazarev,52.225,141.5131,46.29,59,43,6.98,RU,1663085712
508,turayf,31.6725,38.6637,88.05,22,0,13.8,SA,1663085715
509,viedma,-40.8135,-62.9967,61.92,40,13,0.25,AR,1663085717
510,beringovskiy,63.05,179.3167,44.69,83,100,11.65,RU,1663085722
511,halifax,44.6453,-63.5724,77.68,72,75,9.22,CA,1663085476
512,padang,-0.9492,100.3543,77.05,87,100,6.06,ID,1663085726
513,srednekolymsk,67.45,153.6833,39.02,79,100,3.29,RU,1663085731
514,alpen,51.5833,6.5167,79.48,79,99,6.64,DE,1663085733
515,sudak,44.85,34.9667,62.96,61,63,13.2,UA,1663085735
516,kambove,-10.8764,26.5969,79.81,25,17,3.69,CD,1663085738
517,angoche,-16.2325,39.9086,75.31,73,6,10.42,MZ,1663085740
518,fairview,40.8126,-73.999,81.54,79,100,6.91,US,1663085742
519,mumford,5.2618,-0.759,76.78,83,77,13.69,GH,1663085745
520,arona,28.0996,-16.681,76.91,82,20,9.22,ES,1663085747
521,severnyy,50.677,36.5532,51.84,87,100,2.24,RU,1663085749
522,partenit,44.578,34.3446,62.35,68,72,9.01,UA,1663085752
523,polur,12.5,79.1333,82.24,72,61,2.89,IN,1663085754
524,merauke,-8.4667,140.3333,78.1,85,100,14.45,ID,1663085467
525,gomel,52.4345,30.9754,51.82,97,100,11.18,BY,1663085760
526,maniago,46.1706,12.7078,77.22,62,40,6.91,IT,1663085763
527,beyneu,45.3167,55.2,68.47,31,36,22.06,KZ,1663085765
528,tobol,52.6844,62.5794,51.46,59,14,7.27,KZ,1663085768
529,progreso,21.2833,-89.6667,84.31,76,100,0.18,MX,1663085633
530,acapulco,16.8634,-99.8901,78.62,89,100,4.61,MX,1663085499
531,santo tomas,14.1079,121.1414,79.56,95,91,3.69,PH,1663085519
532,el viejo,12.6633,-87.1672,81.54,79,100,3.51,NI,1663085780
533,preobrazheniye,42.9019,133.9064,57.72,68,84,5.7,RU,1663085782
534,diamantino,-14.4086,-56.4461,104.63,11,9,6.08,BR,1663085785
535,okha,53.5739,142.9478,41.99,73,5,8.16,RU,1663085787
536,mayskiy,47.6931,40.1025,60.21,61,11,11.07,RU,1663085789
537,port talbot,51.5924,-3.7802,64.31,80,100,4.0,GB,1663085792
538,dovers,12.8833,-61.1833,87.39,74,78,14.18,VC,1663085794
539,birjand,32.8663,59.2211,75.67,8,0,9.22,IR,1663085796
540,te anau,-45.4167,167.7167,33.91,96,94,0.54,NZ,1663085799
541,wanning,18.8003,110.3967,78.89,86,14,4.05,CN,1663085801
542,odweyne,9.4092,45.064,86.13,35,100,15.61,SO,1663085803
543,ulaanbaatar,47.9077,106.8832,50.13,71,40,4.47,MN,1663085805
544,biak,-0.9131,122.8766,74.8,85,51,7.56,ID,1663085808
545,batticaloa,7.7102,81.6924,80.92,80,96,7.49,LK,1663085810
546,coihaique,-45.5752,-72.0662,53.55,62,100,10.36,CL,1663085814
547,baltatesti,47.1167,26.3,59.49,18,57,3.36,RO,1663085817
548,eenhana,-17.4667,16.3333,91.31,7,4,6.15,NA,1663085819
549,vizinga,61.0749,50.1031,51.49,69,98,5.64,RU,1663085821
550,leh,34.1667,77.5833,60.76,28,10,5.3,IN,1663085817
551,kharp,66.8014,65.8081,41.94,92,100,4.07,RU,1663085826
